[{"name": "Atlanta, Georgia, US", "lat": 33.74899, "lon": -84.39026}, {"name": "Ivry-sur-Seine, \u00cele-de-France, FR", "lat": 48.81223, "lon": 2.38725}, {"name": "Ashburn, Virginia, US", "lat": 39.03002, "lon": -77.46965}, {"name": "Nanchang, Jiangxi, CN", "lat": 28.68755, "lon": 115.854}, {"name": "Ho Chi Minh City, Ho Chi Minh, VN", "lat": 10.76085, "lon": 106.70124}, {"name": "Stavanger, Rogaland, NO", "lat": 58.96997, "lon": 5.73181}, {"name": "C\u00facuta, Santander, CO", "lat": 7.89715, "lon": -72.50804}, {"name": "Maring\u00e1, Paran\u00e1, BR", "lat": -23.42527, "lon": -51.93821}, {"name": "Simferopol, Avtonomna Respublika Krym, UA", "lat": 44.95215, "lon": 34.10249}, {"name": "Krakow, Mazovia, PL", "lat": 52.35111, "lon": 19.94417}, {"name": "Los Angeles, California, US", "lat": 34.05369, "lon": -118.24277}, {"name": "Zaporizhzhya, Zaporizka oblast, UA", "lat": 47.85079, "lon": 35.11829}, {"name": "Santiago, Santiago Metropolitan, CL", "lat": -33.43778, "lon": -70.65045}, {"name": "Bogor, West Java, ID", "lat": -6.5963, "lon": 106.79724}, {"name": "Purwokerto, Central Java, ID", "lat": -7.4279, "lon": 109.24085}, {"name": "Tokyo, Tokyo, JP", "lat": 35.68211, "lon": 139.76567}, {"name": "D\u00fcsseldorf, North Rhine-Westphalia, DE", "lat": 51.2254, "lon": 6.77631}, {"name": "Lanzhou, Gansu, CN", "lat": 36.06208, "lon": 103.83186}, {"name": "Roubaix, Hauts-de-France, FR", "lat": 50.69159, "lon": 3.17417}, {"name": "Moscow, Moskva, RU", "lat": 55.75045, "lon": 37.61749}, {"name": "Goyang-si, Gyeonggi-do, KR", "lat": 37.65819, "lon": 126.83195}, {"name": "S\u00e3o Paulo, S\u00e3o Paulo, BR", "lat": -23.55065, "lon": -46.63338}, {"name": "Denpasar, Bali, ID", "lat": -8.6525, "lon": 115.21912}, {"name": "Bangkok, Bangkok, TH", "lat": 13.75249, "lon": 100.49351}, {"name": "Umuarama, Paran\u00e1, BR", "lat": -23.76212, "lon": -53.31162}, {"name": "Botosani, Boto\u0219ani, RO", "lat": 47.74507, "lon": 26.65999}, {"name": "Jakarta, Jakarta, ID", "lat": -6.18756, "lon": 106.82777}, {"name": "Jackson, Mississippi, US", "lat": 32.30867, "lon": -90.19831}, {"name": "Jakarta, Jawa Barat, ID", "lat": -6.31648, "lon": 106.78}, {"name": "Concepci\u00f3n de la Vega, La Vega, DO", "lat": 19.22374, "lon": -70.52841}, {"name": "Kharkiv, Kharkivska oblast, UA", "lat": 49.99232, "lon": 36.23101}, {"name": "Hangzhou, Zhejiang, CN", "lat": 30.24896, "lon": 120.20523}, {"name": "Dublin, Leinster, IE", "lat": 53.3498, "lon": -6.2603}, {"name": "Ansan-si, Gyeonggi-do, KR", "lat": 37.32172, "lon": 126.83086}, {"name": "Seoul, Seoul-teukbyeolsi, KR", "lat": 37.55455, "lon": 126.97078}, {"name": "Ternopil, Ternopilska oblast, UA", "lat": 49.55577, "lon": 25.59189}, {"name": "Chengdu, Sichuan, CN", "lat": 30.65986, "lon": 104.06337}, {"name": "Istanbul, Istanbul, TR", "lat": 41.0092, "lon": 28.96622}, {"name": "Hong Kong, Central and Western District, HK", "lat": 22.28504, "lon": 114.15838}, {"name": "Dronten, Flevoland, NL", "lat": 52.53139, "lon": 5.75063}, {"name": "Ivano-Frankivsk, Ivano-Frankivska oblast, UA", "lat": 48.92252, "lon": 24.71032}, {"name": "Nairobi, Nairobi City, KE", "lat": -1.29865, "lon": 36.8112}, {"name": "Hatay, Istanbul, TR", "lat": 40.91085, "lon": 29.22161}, {"name": "Nairobi, Nairobi Area, KE", "lat": -0.29184, "lon": 36.11964}, {"name": "Helsinki, Uusimaa, FI", "lat": 60.16749, "lon": 24.94275}, {"name": "Basrah, Basra, IQ", "lat": 30.49524, "lon": 47.8091}, {"name": "Bekasi, Jawa Barat, ID", "lat": -6.23499, "lon": 106.99454}, {"name": "Belgrade, Beograd, RS", "lat": 44.81781, "lon": 20.4569}, {"name": "Quito, Pichincha, EC", "lat": -0.22016, "lon": -78.51233}, {"name": "Budapest, Budapest, HU", "lat": 47.46592, "lon": 19.07747}, {"name": "Portland, Oregon, US", "lat": 45.52025, "lon": -122.67419}, {"name": "Hermosillo, Sonora, MX", "lat": 29.09482, "lon": -110.96922}, {"name": "Carlisle, Pennsylvania, US", "lat": 40.2015, "lon": -77.18908}, {"name": "Seoul, Gyeonggi-do, KR", "lat": 37.49285, "lon": 126.87298}, {"name": "Mumbai, Maharashtra, IN", "lat": 19.07855, "lon": 72.87818}, {"name": "Istanbul, Tokat, TR", "lat": 41.21575, "lon": 28.06193}, {"name": "Suzhou, Jiangsu, CN", "lat": 31.30169, "lon": 120.58107}, {"name": "Dar es Salaam, Dar es Salaam, TZ", "lat": -6.80765, "lon": 39.28694}, {"name": "La Paz, La Paz, BO", "lat": -16.49555, "lon": -68.13362}, {"name": "Montreal, Quebec, CA", "lat": 45.50318, "lon": -73.56981}, {"name": "Nuremberg, Bayern, DE", "lat": 49.45387, "lon": 11.0773}, {"name": "Taipei, Taipei, TW", "lat": 25.04755, "lon": 121.51705}, {"name": "Las Vegas, Nevada, US", "lat": 36.16726, "lon": -115.14852}, {"name": "Council Bluffs, Iowa, US", "lat": 41.25884, "lon": -95.85195}, {"name": "Montevideo, Montevideo, UY", "lat": -34.90589, "lon": -56.19131}, {"name": "Stockholm, Stockholm, SE", "lat": 59.32512, "lon": 18.07109}, {"name": "Raul Soares, Minas Gerais, BR", "lat": -20.10222, "lon": -42.45194}, {"name": "Nanning, Guangxi, CN", "lat": 22.81931, "lon": 108.36272}, {"name": "Tongi, Dhaka, BD", "lat": 23.90849, "lon": 90.398}, {"name": "Hanoi, Hanoi, VN", "lat": 21.04456, "lon": 105.91868}, {"name": "Tuusula, Uusimaa, FI", "lat": 60.40175, "lon": 25.02807}, {"name": "Rzesz\u00f3w, Podkarpackie, PL", "lat": 50.03745, "lon": 22.00472}, {"name": "Milan, Lombardy, IT", "lat": 45.46419, "lon": 9.18963}, {"name": "Valencia, Carabobo, VE", "lat": 10.17003, "lon": -68.0004}, {"name": "Amsterdam, North Holland, NL", "lat": 52.37276, "lon": 4.8936}, {"name": "Berlin, Berlin, DE", "lat": 52.51038, "lon": 13.43491}, {"name": "Santiago de los Caballeros, Santiago, DO", "lat": 19.45039, "lon": -70.6909}, {"name": "Tehran, Tehran, IR", "lat": 35.68925, "lon": 51.3896}, {"name": "Beijing, Beijing, CN", "lat": 39.90622, "lon": 116.39128}, {"name": "Tempe, Arizona, US", "lat": 33.42551, "lon": -111.94001}, {"name": "Chelyabinsk, Chelyabinsk, RU", "lat": 55.15984, "lon": 61.40255}, {"name": "Kyiv, Kyiv City, UA", "lat": 50.44625, "lon": 30.52087}, {"name": "Gresik, East Java, ID", "lat": -5.79335, "lon": 112.65982}, {"name": "Queretaro, Quer\u00e9taro, MX", "lat": 20.59547, "lon": -100.39706}, {"name": "Babahoyo, Los R\u00edos, EC", "lat": -1.8009, "lon": -79.53382}, {"name": "Lucknow, Uttar Pradesh, IN", "lat": 26.8381, "lon": 80.9346}, {"name": "Saint Petersburg, Sankt-Peterburg, RU", "lat": 59.93873, "lon": 30.31623}, {"name": "Cuenca, Azuay, EC", "lat": -2.89741, "lon": -79.00417}, {"name": "North Bergen, New Jersey, US", "lat": 40.80427, "lon": -74.01208}, {"name": "Moscow, Moscow, RU", "lat": 55.75045, "lon": 37.61749}, {"name": "Caracas, Distrito Federal, VE", "lat": 10.48909, "lon": -66.9311}, {"name": "Almaty, Almaty, KZ", "lat": 43.23269, "lon": 76.59951}, {"name": "Bandar Abbas, Hormozgan, IR", "lat": 27.17935, "lon": 56.27814}, {"name": "Fresno, California, US", "lat": 36.73944, "lon": -119.78483}, {"name": "Bengaluru, Karnataka, IN", "lat": 12.97679, "lon": 77.59008}, {"name": "Bandung, West Java, ID", "lat": -6.93447, "lon": 107.60495}, {"name": "General San Martin, Buenos Aires, AR", "lat": -34.57628, "lon": -58.53884}, {"name": "Machala, El Oro, EC", "lat": -3.25886, "lon": -79.95885}, {"name": "Medell\u00edn, Antioquia, CO", "lat": 6.24434, "lon": -75.57355}, {"name": "Maputo, Maputo, MZ", "lat": -25.97101, "lon": 32.56447}, {"name": "Rivne, Rivne, UA", "lat": 50.61962, "lon": 26.25132}, {"name": "Itabira, Minas Gerais, BR", "lat": -19.61863, "lon": -43.2267}, {"name": "Columbus, Ohio, US", "lat": 39.96226, "lon": -83.00071}, {"name": "Frankfurt am Main, Hesse, DE", "lat": 50.11064, "lon": 8.68209}, {"name": "Conchali, Santiago Metropolitan, CL", "lat": -33.38432, "lon": -70.67473}, {"name": "Cunit, Catalonia, ES", "lat": 41.1976, "lon": 1.63446}, {"name": "Joinville, Santa Catarina, BR", "lat": -26.30449, "lon": -48.84867}, {"name": "Sydney, New South Wales, AU", "lat": -33.86984, "lon": 151.20828}, {"name": "Mersin, Mersin, TR", "lat": 36.79784, "lon": 34.62984}, {"name": "Lagos, Lagos, NG", "lat": 6.45506, "lon": 3.39418}, {"name": "Dhaka, Dhaka, BD", "lat": 23.7644, "lon": 90.38902}, {"name": "Catarama, Los R\u00edos, EC", "lat": -1.56922, "lon": -79.47502}, {"name": "Mandaluyong City, National Capital Region, PH", "lat": 14.57765, "lon": 121.0337}, {"name": "Shenzhen, Guangdong, CN", "lat": 22.54457, "lon": 114.05454}, {"name": "Campo Grande, Mato Grosso do Sul, BR", "lat": -20.46402, "lon": -54.61629}, {"name": "San Mateo, California, US", "lat": 37.4969, "lon": -122.33306}, {"name": "Piscataway, New Jersey, US", "lat": 40.54626, "lon": -74.46604}, {"name": "Malang, Jawa Timur, ID", "lat": -7.97712, "lon": 112.63403}, {"name": "Turmero, Aragua, VE", "lat": 10.22172, "lon": -67.48658}, {"name": "Belgrade, Vojvodina, RS", "lat": 45.88537, "lon": 19.63398}, {"name": "Phoenix, Arizona, US", "lat": 33.44844, "lon": -112.07414}, {"name": "Smederevo, Podunavski okrug, RS", "lat": 44.6651, "lon": 20.92711}, {"name": "Surabaya, Jawa Timur, ID", "lat": -7.24597, "lon": 112.73783}, {"name": "Gaocheng, Hebei, CN", "lat": 38.02357, "lon": 114.84061}, {"name": "Nablus, West Bank, PS", "lat": 32.22053, "lon": 35.25694}, {"name": "Kearney, Nebraska, US", "lat": 40.49062, "lon": -98.94723}, {"name": "Faridpur, Dhaka, BD", "lat": 23.60402, "lon": 89.84155}, {"name": "Los Andes, Valpara\u00edso, CL", "lat": -32.83369, "lon": -70.59816}, {"name": "Zaporizhzhya, Zaporizhzhya Oblast, UA", "lat": 47.85079, "lon": 35.11829}, {"name": "Seoul, Seoul, KR", "lat": 37.55455, "lon": 126.97078}, {"name": "Warsaw, Mazovia, PL", "lat": 52.23196, "lon": 21.00672}, {"name": "Kaunas, Kaunas, LT", "lat": 54.89821, "lon": 23.90448}, {"name": "Bangkok, Krung Thep Maha Nakhon, TH", "lat": 13.75249, "lon": 100.49351}, {"name": "Ban Rai, Uthai Thani, TH", "lat": 15.0825, "lon": 99.52111}, {"name": "Xiamen, Fujian, CN", "lat": 24.48011, "lon": 118.08535}, {"name": "Karlovy Vary, Karlovarsk\u00fd kraj, CZ", "lat": 50.23061, "lon": 12.86999}, {"name": "Mogi Guacu, S\u00e3o Paulo, BR", "lat": -22.37222, "lon": -46.9425}, {"name": "Samara, Samara Oblast, RU", "lat": 53.19863, "lon": 50.11399}, {"name": "Khmelnytskyi, Khmelnytskyi Oblast, UA", "lat": 49.41964, "lon": 26.97938}, {"name": "Burns, Oregon, US", "lat": 43.58613, "lon": -119.05441}, {"name": "Surabaya, East Java, ID", "lat": -7.24597, "lon": 112.73783}, {"name": "Brussels, Brussels Capital, BE", "lat": 50.84656, "lon": 4.3517}, {"name": "Rajkot, Gujarat, IN", "lat": 22.30533, "lon": 70.80284}, {"name": "Odesa, Odessa, UA", "lat": 46.4843, "lon": 30.73229}, {"name": "Tychy, Silesia, PL", "lat": 50.1144, "lon": 18.99659}, {"name": "Makariv, Kyivska oblast, UA", "lat": 50.46399, "lon": 29.8069}, {"name": "Palmares do Sul, Rio Grande do Sul, BR", "lat": -30.25802, "lon": -50.5098}, {"name": "Bogot\u00e1, Bogota D.C., CO", "lat": 4.65346, "lon": -74.08365}, {"name": "Suwanee, Georgia, US", "lat": 34.05149, "lon": -84.0713}, {"name": "Ouro Branco, Minas Gerais, BR", "lat": -20.52303, "lon": -43.69173}, {"name": "Juiz de Fora, Minas Gerais, BR", "lat": -21.76095, "lon": -43.35011}, {"name": "Kampala, Central Region, UG", "lat": 0.31771, "lon": 32.58135}, {"name": "Benav\u00eddez, Buenos Aires, AR", "lat": -34.41157, "lon": -58.68993}, {"name": "Saladas, Corrientes, AR", "lat": -28.25471, "lon": -58.62333}, {"name": "Cape Town, Western Cape, ZA", "lat": -33.92899, "lon": 18.4174}, {"name": "Shaoxing, Zhejiang, CN", "lat": 29.99924, "lon": 120.57685}, {"name": "Bom Sucesso, Minas Gerais, BR", "lat": -21.03235, "lon": -44.75981}, {"name": "Falkenstein, Sachsen, DE", "lat": 50.53539, "lon": 12.66438}, {"name": "Voronezh, Voronezh Oblast, RU", "lat": 51.6606, "lon": 39.20059}, {"name": "Sao Joaquim de Bicas, Minas Gerais, BR", "lat": -20.04891, "lon": -44.27317}, {"name": "Taichung, Nantou, TW", "lat": 23.91033, "lon": 120.68555}, {"name": "Jakarta, Jakarta Raya, ID", "lat": -6.14576, "lon": 106.905}, {"name": "Kranidi, Peloponnese, GR", "lat": 37.38054, "lon": 23.16014}, {"name": "Cartago, Cartago, CR", "lat": 9.86424, "lon": -83.92044}, {"name": "Vyshneve, Kyiv, UA", "lat": 50.39175, "lon": 30.3679}, {"name": "Bogra, Rajshahi Division, BD", "lat": 24.85007, "lon": 89.37284}, {"name": "Ciudad Obreg\u00f3n, Sonora, MX", "lat": 27.48466, "lon": -109.93378}, {"name": "Innsbruck, Tyrol, AT", "lat": 47.26543, "lon": 11.39277}, {"name": "Norwalk, California, US", "lat": 33.90928, "lon": -118.08492}, {"name": "Madrid, Madrid, ES", "lat": 40.4167, "lon": -3.70358}, {"name": "Whitehall, Montana, US", "lat": 45.87076, "lon": -112.09749}, {"name": "Amsterdam, Noord-Holland, NL", "lat": 52.37276, "lon": 4.8936}, {"name": "Rosario, Santa Fe, AR", "lat": -32.9595, "lon": -60.66154}, {"name": "Erbil, Arb\u012bl, IQ", "lat": 36.19117, "lon": 44.00943}, {"name": "Sochi, Krasnodar Krai, RU", "lat": 43.58548, "lon": 39.72311}, {"name": "Kathmandu, Bagmati Province, NP", "lat": 27.70832, "lon": 85.32058}, {"name": "Jun\u00edn, Buenos Aires, AR", "lat": -34.59344, "lon": -60.94617}, {"name": "Noida, Uttar Pradesh, IN", "lat": 28.57078, "lon": 77.32711}, {"name": "Akron, Ohio, US", "lat": 41.08306, "lon": -81.51848}, {"name": "An\u00e1polis, Goi\u00e1s, BR", "lat": -16.33328, "lon": -48.95258}, {"name": "Taichung, Taichung, TW", "lat": 24.13707, "lon": 120.68687}, {"name": "Wuxi, Jiangsu, CN", "lat": 31.49331, "lon": 120.30744}, {"name": "C\u00f3rdoba, Andalusia, ES", "lat": 37.88458, "lon": -4.77601}, {"name": "Mexico City, Mexico City, MX", "lat": 19.42396, "lon": -99.17573}, {"name": "Tawangrejo, East Java, ID", "lat": -7.6597, "lon": 112.41566}, {"name": "Despenaderos, Cordoba, AR", "lat": -31.81463, "lon": -64.2917}, {"name": "Post, Texas, US", "lat": 33.19092, "lon": -101.38066}, {"name": "Yogyakarta, Yogyakarta, ID", "lat": -7.80119, "lon": 110.36492}, {"name": "Jinhua, Zhejiang, CN", "lat": 29.10803, "lon": 119.64865}, {"name": "Resistencia, Chaco, AR", "lat": -27.45112, "lon": -58.98652}, {"name": "Nuremberg, Bavaria, DE", "lat": 49.45387, "lon": 11.0773}, {"name": "Schweizer-Reneke, North-West, ZA", "lat": -27.19336, "lon": 25.33203}, {"name": "Vereeniging, Gauteng, ZA", "lat": -26.67472, "lon": 27.92611}, {"name": "Karachi, Sindh, PK", "lat": 24.85468, "lon": 67.02071}, {"name": "Matur\u00edn, Monagas, VE", "lat": 9.74228, "lon": -63.18889}, {"name": "Paris, \u00cele-de-France, FR", "lat": 48.85889, "lon": 2.32004}, {"name": "Monterrey, Nuevo Le\u00f3n, MX", "lat": 25.6802, "lon": -100.31526}, {"name": "Hanoi, Ninh B\u00ecnh, VN", "lat": 20.21704, "lon": 105.94108}, {"name": "Bangkok, Pathum Thani, TH", "lat": 13.98529, "lon": 100.55421}, {"name": "Washington, Virginia, US", "lat": 36.74024, "lon": -81.94217}, {"name": "Buenaventura, Valle del Cauca, CO", "lat": 3.88993, "lon": -77.0786}, {"name": "Cheboksary, Chuvashia, RU", "lat": 56.13072, "lon": 47.24496}, {"name": "Islamabad, Islamabad, PK", "lat": 33.69381, "lon": 73.06515}, {"name": "Ribeir\u00e3o Preto, S\u00e3o Paulo, BR", "lat": -21.17833, "lon": -47.80667}, {"name": "Manchester, England, GB", "lat": 53.47949, "lon": -2.24511}, {"name": "London, England, GB", "lat": 51.50732, "lon": -0.12765}, {"name": "Taipei, Taiwan, TW", "lat": 25.11958, "lon": 121.79872}, {"name": "Belgrade, Central Serbia, RS", "lat": 44.81781, "lon": 20.4569}, {"name": "Shanghai, Shanghai, CN", "lat": 31.40157, "lon": 121.4453}, {"name": "Caracas, Distrito Capital, VE", "lat": 10.48909, "lon": -66.9311}, {"name": "Delhi, Punjab, IN", "lat": 30.95874, "lon": 74.61002}, {"name": "Pattaya, Chon Buri, TH", "lat": 12.93667, "lon": 100.88646}, {"name": "Munich, Bavaria, DE", "lat": 48.13711, "lon": 11.57538}, {"name": "Shenzhen, Zhejiang, CN", "lat": 29.41804, "lon": 121.34416}, {"name": "Chicago, Illinois, US", "lat": 41.87556, "lon": -87.62442}, {"name": "Cali, Valle del Cauca, CO", "lat": 3.45179, "lon": -76.53249}, {"name": "Hanoi, Ho Chi Minh, VN", "lat": 20.846, "lon": 105.61865}, {"name": "Makassar, Sulawesi Selatan, ID", "lat": -5.1343, "lon": 119.41243}, {"name": "Clifton, New Jersey, US", "lat": 40.85843, "lon": -74.16376}, {"name": "Qingdao, Shandong, CN", "lat": 36.0638, "lon": 120.37814}, {"name": "Susanj, Bar, ME", "lat": 42.11628, "lon": 19.09314}, {"name": "Falkenstein, Saxony, DE", "lat": 50.53539, "lon": 12.66438}, {"name": "Wilmington, Delaware, US", "lat": 39.74595, "lon": -75.54659}, {"name": "Hyder\u0101b\u0101d, Telangana, IN", "lat": 17.36059, "lon": 78.47406}, {"name": "Upland, California, US", "lat": 34.09751, "lon": -117.64839}, {"name": "Jimbaran, Bali, ID", "lat": -8.77249, "lon": 115.17239}, {"name": "Malang, East Java, ID", "lat": -7.97712, "lon": 112.63403}, {"name": "Los Angeles, New York, US", "lat": 34.01439, "lon": -117.89845}, {"name": "Haarlem, North Holland, NL", "lat": 52.38371, "lon": 4.64356}, {"name": "Chongqing, Chongqing, CN", "lat": 29.56474, "lon": 106.54788}, {"name": "Montalvo, Los Rios, EC", "lat": -1.80259, "lon": -79.34813}, {"name": "Lisbon, Lisboa, PT", "lat": 38.70775, "lon": -9.13659}, {"name": "Campos do Jord\u00e3o, S\u00e3o Paulo, BR", "lat": -22.73953, "lon": -45.59128}, {"name": "Carlisle, Georgia, US", "lat": 34.04402, "lon": -84.47777}, {"name": "Chumphon, Chumphon, TH", "lat": 10.5031, "lon": 99.17582}, {"name": "Tehran, Khuzestan, IR", "lat": 35.69504, "lon": 51.39445}, {"name": "Tomsk, Tomsk Oblast, RU", "lat": 56.48871, "lon": 84.95232}, {"name": "Toronto, Ontario, CA", "lat": 43.65348, "lon": -79.38393}, {"name": "Bethesda, Virginia, US", "lat": 38.18953, "lon": -82.42265}, {"name": "Bogra, Dhaka, BD", "lat": 24.7992, "lon": 89.38731}, {"name": "Puente Alto, Santiago Metropolitan, CL", "lat": -33.60953, "lon": -70.57547}, {"name": "San Miguel de Tucum\u00e1n, Tucuman, AR", "lat": -26.83037, "lon": -65.20381}, {"name": "Sao Luiz Gonzaga, Rio Grande do Sul, BR", "lat": -28.40745, "lon": -54.96091}, {"name": "Buenos Aires, Cordoba, AR", "lat": -31.43024, "lon": -64.18853}, {"name": "Colima, Colima, MX", "lat": 19.24519, "lon": -103.72083}, {"name": "Yerevan, Yerevan, AM", "lat": 40.1554, "lon": 44.5078}, {"name": "Una, Bahia, BR", "lat": -15.27249, "lon": -39.24689}, {"name": "Stara Zagora, Stara Zagora, BG", "lat": 42.42481, "lon": 25.62575}, {"name": "Padang, Sumatera Barat, ID", "lat": -0.92476, "lon": 100.36326}, {"name": "Ocala, Florida, US", "lat": 29.1872, "lon": -82.14009}, {"name": "Kabul, Kabul, AF", "lat": 34.52601, "lon": 69.17768}, {"name": "Jaguaribe, Ceara, BR", "lat": -5.88546, "lon": -38.6213}, {"name": "Yekaterinburg, Sverdlovsk Oblast, RU", "lat": 56.8391, "lon": 60.60825}, {"name": "Udon Thani, Udon Thani, TH", "lat": 17.40824, "lon": 102.78681}, {"name": "Irkutsk, Irkutskaya oblast', RU", "lat": 53.08618, "lon": 106.94248}, {"name": "Armenia, Antioquia, CO", "lat": 6.15618, "lon": -75.78705}, {"name": "Guatemala City, Guatemala, GT", "lat": 14.62223, "lon": -90.51852}, {"name": "Cao B\u1eb1ng, Cao B\u1eb1ng, VN", "lat": 22.66576, "lon": 106.25883}, {"name": "Guangzhou, Guangdong, CN", "lat": 23.1302, "lon": 113.25929}, {"name": "Hong Kong, Hong Kong, HK", "lat": 22.27933, "lon": 114.16281}, {"name": "Jeddah, Mecca Region, SA", "lat": 21.58101, "lon": 39.16536}, {"name": "Warrington, England, GB", "lat": 53.38995, "lon": -2.59432}, {"name": "Nueve de Julio, Buenos Aires, AR", "lat": -35.44448, "lon": -60.88417}, {"name": "Bilzen, Flanders, BE", "lat": 50.87078, "lon": 5.51811}, {"name": "Aktau, Mangghysta\u016b, KZ", "lat": 43.63534, "lon": 51.16822}, {"name": "Mogilany, Lesser Poland, PL", "lat": 49.94133, "lon": 19.88777}, {"name": "Bhilai, Chhattisgarh, IN", "lat": 21.21207, "lon": 81.37328}, {"name": "Bangkok, Phra Nakhon Si Ayutthaya, TH", "lat": 14.23332, "lon": 100.71936}, {"name": "Hermosillo, Baja California Sur, MX", "lat": 23.09802, "lon": -109.71798}, {"name": "Maiduguri, Borno, NG", "lat": 11.83954, "lon": 13.15362}, {"name": "Rewari, Haryana, IN", "lat": 28.19565, "lon": 76.61652}, {"name": "Jakarta, West Java, ID", "lat": -6.31648, "lon": 106.78}, {"name": "Bang Pakong, Chachoengsao, TH", "lat": 13.50069, "lon": 100.98927}, {"name": "Lahore, Punjab, PK", "lat": 31.56568, "lon": 74.31418}, {"name": "Lakeway, Texas, US", "lat": 30.36449, "lon": -97.98753}, {"name": "Mi\u0119dzyrzecz, Lubusz, PL", "lat": 52.44483, "lon": 15.57864}, {"name": "Nagpur, Maharashtra, IN", "lat": 21.14981, "lon": 79.08206}, {"name": "Santa Terezinha, Santa Catarina, BR", "lat": -26.7813, "lon": -50.00902}, {"name": "Mumbai, Delhi, IN", "lat": 19.48336, "lon": 72.89892}, {"name": "Tbilisi, T'bilisi, GE", "lat": 41.69576, "lon": 44.803}, {"name": "Taichung, Taiwan, TW", "lat": 24.13707, "lon": 120.68687}, {"name": "Johannesburg, Gauteng, ZA", "lat": -26.205, "lon": 28.04972}, {"name": "Stone Mountain, Georgia, US", "lat": 33.80622, "lon": -84.14575}, {"name": "Athens, Attica, GR", "lat": 37.98394, "lon": 23.72831}, {"name": "Da Nang, Da Nang, VN", "lat": 20.91457, "lon": 106.67449}, {"name": "Brovary, Kyivska oblast, UA", "lat": 50.51112, "lon": 30.79005}, {"name": "Chernivtsi, Chernivtsi Oblast, UA", "lat": 48.28647, "lon": 25.93765}, {"name": "Bhubaneshwar, Odisha, IN", "lat": 20.2603, "lon": 85.83945}, {"name": "Santa Rosa, La Pampa, AR", "lat": -36.62035, "lon": -64.29058}, {"name": "Barnaul, Altai Krai, RU", "lat": 53.3474, "lon": 83.77845}, {"name": "Itaperuna, Rio de Janeiro, BR", "lat": -21.1934, "lon": -41.8995}, {"name": "Ivanteyevka, Moscow Oblast, RU", "lat": 55.97141, "lon": 37.92007}, {"name": "Ibicoara, Bahia, BR", "lat": -13.41308, "lon": -41.28512}, {"name": "Castelar, Buenos Aires, AR", "lat": -34.65556, "lon": -58.64251}, {"name": "Odesa, Odeska oblast, UA", "lat": 46.4843, "lon": 30.73229}, {"name": "Gaborone, Gaborone, BW", "lat": -24.66102, "lon": 25.90479}, {"name": "Prost\u011bjov, Olomouck\u00fd, CZ", "lat": 49.47215, "lon": 17.1118}, {"name": "Hajdunanas, Hajd\u00fa-Bihar, HU", "lat": 47.84522, "lon": 21.4279}, {"name": "Qinnan, Jiangsu, CN", "lat": 33.25975, "lon": 119.91389}, {"name": "Ternopil, Ternopil Oblast, UA", "lat": 49.55577, "lon": 25.59189}, {"name": "Itaberaba, Bahia, BR", "lat": -12.52418, "lon": -40.3059}, {"name": "Alicante, Valencia, ES", "lat": 38.34364, "lon": -0.48817}, {"name": "Jakarta, East Java, ID", "lat": -7.22232, "lon": 112.73937}, {"name": "Colon, Entre Rios, AR", "lat": -32.21828, "lon": -58.13562}, {"name": "Kudus, Central Java, ID", "lat": -6.81709, "lon": 110.83819}, {"name": "Kazan, Tatarstan Republic, RU", "lat": 55.78235, "lon": 49.12423}, {"name": "Bratislava, Bratislavsky kraj, SK", "lat": 48.1517, "lon": 17.10931}, {"name": "Phnom Penh, Phnom Penh, KH", "lat": 11.56827, "lon": 104.92244}, {"name": "Campina Grande, Para\u00edba, BR", "lat": -7.22467, "lon": -35.87713}, {"name": "Nairobi, Nakuru, KE", "lat": -0.02102, "lon": 36.23448}, {"name": "Lviv, Lvivska oblast, UA", "lat": 49.84195, "lon": 24.03159}, {"name": "Montes Claros, Minas Gerais, BR", "lat": -16.72735, "lon": -43.87177}, {"name": "Krak\u00f3w, Lesser Poland, PL", "lat": 50.06195, "lon": 19.93686}, {"name": "Bila Tserkva, Kyivska oblast, UA", "lat": 49.79697, "lon": 30.11581}, {"name": "Poltava, Poltava Oblast, UA", "lat": 49.58974, "lon": 34.55079}, {"name": "M\u00e9rida, Yucat\u00e1n, MX", "lat": 20.96708, "lon": -89.62374}, {"name": "Metro, Lampung, ID", "lat": -5.10788, "lon": 105.30786}, {"name": "Kharkiv, Kharkiv, UA", "lat": 49.99232, "lon": 36.23101}, {"name": "San Salvador de Jujuy, Tucuman, AR", "lat": -24.21012, "lon": -65.27132}, {"name": "Jakarta, Jawa Tengah, ID", "lat": -6.91266, "lon": 107.65203}, {"name": "Kremenets, Ternopil Oblast, UA", "lat": 50.0961, "lon": 25.72608}, {"name": "Zhenjiang, Jiangsu, CN", "lat": 32.19011, "lon": 119.42006}, {"name": "Xingtai, Hebei, CN", "lat": 37.06165, "lon": 114.49975}, {"name": "Chittagong, Chittagong, BD", "lat": 22.68394, "lon": 91.78914}, {"name": "North Charleston, South Carolina, US", "lat": 32.85462, "lon": -79.97481}, {"name": "Munich, Bayern, DE", "lat": 48.13711, "lon": 11.57538}, {"name": "Lake Arthur, Louisiana, US", "lat": 30.08076, "lon": -92.67153}, {"name": "Singapore, Singapore, SG", "lat": 1.3042, "lon": 103.81847}, {"name": "Zhangjiakou, Hebei, CN", "lat": 40.8228, "lon": 114.88057}, {"name": "Falkenstein, Bavaria, DE", "lat": 49.09721, "lon": 12.48655}, {"name": "Khlong Luang, Pathum Thani, TH", "lat": 14.10339, "lon": 100.67035}, {"name": "Meerut, Uttar Pradesh, IN", "lat": 29.00065, "lon": 77.76823}, {"name": "Teresina, Piau\u00ed, BR", "lat": -5.08964, "lon": -42.80959}, {"name": "Azogues, Azuay, EC", "lat": -2.9092, "lon": -78.98248}, {"name": "Simferopol, Crimea, UA", "lat": 44.95215, "lon": 34.10249}, {"name": "Lima, Lima, PE", "lat": -12.06211, "lon": -77.03653}, {"name": "Naples, Florida, US", "lat": 26.1422, "lon": -81.79429}, {"name": "Guayaquil, Guayas, EC", "lat": -2.28952, "lon": -80.09839}, {"name": "Changchun, Jilin, CN", "lat": 43.81307, "lon": 125.31712}, {"name": "Wenzhou, Zhejiang, CN", "lat": 27.99639, "lon": 120.69535}, {"name": "Cotaxtla, Veracruz, MX", "lat": 18.85766, "lon": -96.351}, {"name": "Beijing, Guangdong, CN", "lat": 23.13094, "lon": 113.26559}, {"name": "Lviv, Lviv, UA", "lat": 49.84195, "lon": 24.03159}, {"name": "Barcelona, Catalonia, ES", "lat": 41.38289, "lon": 2.17743}, {"name": "Simferopol, Avtonomna Respublika Krym, RU", "lat": 44.98395, "lon": 34.12818}, {"name": "Yintai, Shaanxi, CN", "lat": 35.10271, "lon": 109.09616}, {"name": "Hyderabad, Telangana, IN", "lat": 17.36059, "lon": 78.47406}, {"name": "Huatabampo, Sonora, MX", "lat": 26.60488, "lon": -109.23206}, {"name": "Nanjing, Jiangsu, CN", "lat": 32.06155, "lon": 118.79156}, {"name": "Iquique, Tarapac\u00e1, CL", "lat": -20.21407, "lon": -70.15246}, {"name": "Tokyo, Tochigi, JP", "lat": 36.28513, "lon": 139.83092}, {"name": "Jagong, Central Java, ID", "lat": -7.04962, "lon": 111.24559}, {"name": "Bengaluru, Maharashtra, IN", "lat": 18.22982, "lon": 73.91477}, {"name": "Fukuoka, Fukuoka, JP", "lat": 33.5899, "lon": 130.40175}, {"name": "Zanj\u0101n, Zanjan, IR", "lat": 36.66998, "lon": 48.48594}, {"name": "Heerenveen, Friesland, NL", "lat": 52.99847, "lon": 5.92315}, {"name": "Buldan, Denizli, TR", "lat": 38.11011, "lon": 28.83404}, {"name": "Khlong Luang, Bangkok, TH", "lat": 13.61265, "lon": 100.36869}, {"name": "Hat Yai, Songkhla, TH", "lat": 7.00746, "lon": 100.46899}, {"name": "Barranquilla, Atl\u00e1ntico, CO", "lat": 10.98108, "lon": -74.79888}, {"name": "Samarinda, Kalimantan Timur, ID", "lat": -0.50178, "lon": 117.13931}, {"name": "White Bear Lake, Minnesota, US", "lat": 45.08381, "lon": -93.00693}, {"name": "S\u00e3o Leopoldo, Rio Grande do Sul, BR", "lat": -29.75444, "lon": -51.15165}, {"name": "Dnipro, Dnipropetrovsk Oblast, UA", "lat": 48.46802, "lon": 35.04177}, {"name": "San Pedro Sula, Cort\u00e9s, HN", "lat": 15.50622, "lon": -88.02489}, {"name": "Petrolina, Pernambuco, BR", "lat": -9.38173, "lon": -40.49689}, {"name": "Kuala Lumpur, Kuala Lumpur, MY", "lat": 3.13962, "lon": 101.69374}, {"name": "Bilbao, Basque Country, ES", "lat": 43.263, "lon": -2.935}, {"name": "Pasuruan, East Java, ID", "lat": -7.64199, "lon": 112.90669}, {"name": "Sylhet, Sylhet, BD", "lat": 24.89922, "lon": 91.86853}, {"name": "Kosiv, Ivano-Frankivsk Oblast, UA", "lat": 48.3158, "lon": 25.09834}, {"name": "Monte Caseros, Corrientes, AR", "lat": -30.24968, "lon": -57.62944}, {"name": "Phan Rang-Thap Cham, Ninh Thuan, VN", "lat": 11.57698, "lon": 108.98654}, {"name": "Nova Odessa, S\u00e3o Paulo, BR", "lat": -22.78319, "lon": -47.29406}, {"name": "Boa Vista, Roraima, BR", "lat": 2.82085, "lon": -60.67196}, {"name": "Macap\u00e1, Amap\u00e1, BR", "lat": 0.04015, "lon": -51.05696}, {"name": "Rengasdengklok, West Java, ID", "lat": -6.1562, "lon": 107.29243}, {"name": "Santa Cruz de la Sierra, Santa Cruz, BO", "lat": -17.78349, "lon": -63.18209}, {"name": "Ivano-Frankivsk, Ivano-Frankivsk Oblast, UA", "lat": 48.92248, "lon": 24.71033}, {"name": "Zacualtipan, Hidalgo, MX", "lat": 20.64979, "lon": -98.65633}, {"name": "Accra, Greater Accra, GH", "lat": 5.55711, "lon": -0.20124}, {"name": "Termoli, Molise, IT", "lat": 41.99833, "lon": 14.99394}, {"name": "Maric\u00e1, Rio de Janeiro, BR", "lat": -22.90592, "lon": -42.79263}, {"name": "Bogot\u00e1, Antioquia, CO", "lat": 6.18899, "lon": -75.74092}, {"name": "Cabanatuan City, Central Luzon, PH", "lat": 15.49739, "lon": 120.98202}, {"name": "Budapest, Pest, HU", "lat": 47.38309, "lon": 18.95362}, {"name": "Ulaanbaatar, Ulaanbaatar, MN", "lat": 47.9082, "lon": 106.88386}, {"name": "Kanevskaya, Krasnodar Krai, RU", "lat": 46.08488, "lon": 38.97243}, {"name": "Pandeglang, Banten, ID", "lat": -6.54738, "lon": 105.79949}, {"name": "Rio Grande, Rio Grande do Sul, BR", "lat": -32.03343, "lon": -52.09913}, {"name": "Tirana, Tirana, AL", "lat": 41.33051, "lon": 19.82556}, {"name": "Kaly\u0101n, Maharashtra, IN", "lat": 19.27163, "lon": 73.23587}, {"name": "Espinho, Aveiro, PT", "lat": 41.00836, "lon": -8.63941}, {"name": "Queenstown, Eastern Cape, ZA", "lat": -31.89167, "lon": 26.88194}, {"name": "Matane, Quebec, CA", "lat": 48.84688, "lon": -67.52955}, {"name": "Evanston, Illinois, US", "lat": 42.04474, "lon": -87.69305}, {"name": "Bogota, Antioquia, CO", "lat": 6.18899, "lon": -75.74092}, {"name": "Centurion, Gauteng, ZA", "lat": -25.83639, "lon": 28.18028}, {"name": "Madiun, East Java, ID", "lat": -7.61189, "lon": 111.67319}, {"name": "Sala Bolognese, Emilia-Romagna, IT", "lat": 44.6296, "lon": 11.27275}, {"name": "\u0130zmir, \u0130zmir, TR", "lat": 38.42245, "lon": 27.13107}, {"name": "Lyubertsy, Moscow, RU", "lat": 55.67831, "lon": 37.89377}, {"name": "Semarang, Jakarta, ID", "lat": -6.19989, "lon": 106.83913}, {"name": "Gunzenhausen, Bavaria, DE", "lat": 49.11471, "lon": 10.75459}, {"name": "Maun, North West, BW", "lat": -19.9861, "lon": 23.42244}, {"name": "Ala\u015fehir, Manisa, TR", "lat": 38.35075, "lon": 28.51657}, {"name": "Ca\u00e7ador, Santa Catarina, BR", "lat": -26.77567, "lon": -51.012}, {"name": "Carboneras, Andalusia, ES", "lat": 36.99687, "lon": -1.89466}, {"name": "Varna, Varna, BG", "lat": 43.20739, "lon": 27.91667}, {"name": "Darcinopolis, Tocantins, BR", "lat": -6.7086, "lon": -47.75243}, {"name": "El Calafate, Santa Cruz, AR", "lat": -50.33887, "lon": -72.27208}, {"name": "Elbasan, Elbasan, AL", "lat": 41.11059, "lon": 20.07941}, {"name": "Medan, Jakarta, ID", "lat": -6.11001, "lon": 106.94496}, {"name": "Krakow, Lesser Poland, PL", "lat": 50.06195, "lon": 19.93686}, {"name": "Bryansk, Bryansk Oblast, RU", "lat": 53.24238, "lon": 34.36683}, {"name": "Bucharest, Bucuresti, RO", "lat": 44.43564, "lon": 26.10093}, {"name": "Liaocheng, Shandong, CN", "lat": 36.4441808, "lon": 115.9642007}, {"name": "Colombo, Paran\u00e1, BR", "lat": -25.2925439, "lon": -49.2243472}, {"name": "Christiana, Gauteng, ZA", "lat": -25.7553573, "lon": 28.1876182}, {"name": "Beauharnois, Quebec, CA", "lat": 45.3139778, "lon": -73.875834}, {"name": "Karawang, West Java, ID", "lat": -6.3042012, "lon": 107.307897}, {"name": "Fremont, California, US", "lat": 37.5482697, "lon": -121.988571}, {"name": "Casper, Wyoming, US", "lat": 42.8501191, "lon": -106.325138}, {"name": "Khuan Don, Satun, TH", "lat": 6.786707, "lon": 100.0796451}, {"name": "Barquisimeto, Lara, VE", "lat": 10.0774374, "lon": -69.3222293}, {"name": "Strongoli, Calabria, IT", "lat": 39.2639586, "lon": 17.0520257}, {"name": "Rawalpindi, Punjab, PK", "lat": 33.5914237, "lon": 73.0535122}, {"name": "Bogot\u00e1, Cundinamarca, CO", "lat": 4.2129478, "lon": -74.2365591}, {"name": "Chiang Mai, Chiang Mai, TH", "lat": 18.7882778, "lon": 98.9858802}, {"name": "Perm, Perm Krai, RU", "lat": 58.014965, "lon": 56.246723}, {"name": "Panama City, Panam\u00e1, PA", "lat": 8.9714493, "lon": -79.5341802}, {"name": "Fuente de Oro, Meta, CO", "lat": 3.4639497, "lon": -73.6213964}, {"name": "Ban Kha, Ratchaburi, TH", "lat": 13.4285077, "lon": 99.407448}, {"name": "Itumbiara, Goi\u00e1s, BR", "lat": -18.4135862, "lon": -49.2172596}, {"name": "Friburgo, S\u00e3o Paulo, BR", "lat": -23.3888022, "lon": -46.6410613}, {"name": "Neuqu\u00e9n, Neuquen, AR", "lat": -38.9519679, "lon": -68.0591741}, {"name": "Shijiazhuang, Hebei, CN", "lat": 38.0429742, "lon": 114.5088385}, {"name": "Gangnam-gu, Gyeonggi-do, KR", "lat": 37.2774148, "lon": 127.13523212484522}, {"name": "Neiva, Huila, CO", "lat": 2.9263127, "lon": -75.2891733}, {"name": "Monroe, Louisiana, US", "lat": 32.5102427, "lon": -92.1032411}, {"name": "Irec\u00ea, Bahia, BR", "lat": -11.3034965, "lon": -41.8557929}, {"name": "Philadelphia, Pennsylvania, US", "lat": 39.9527237, "lon": -75.1635262}, {"name": "Jalapa, Jalapa, GT", "lat": 14.6344164, "lon": -89.9897996}, {"name": "Purwakarta, West Java, ID", "lat": -6.5607313, "lon": 107.4439799}, {"name": "Toluca, M\u00e9xico, MX", "lat": 19.292545, "lon": -99.6569007}, {"name": "Nova Canaa Do Norte, Mato Grosso, BR", "lat": -10.6367877, "lon": -55.709177}, {"name": "Samut Prakan, Samut Prakan, TH", "lat": 13.5835218, "lon": 100.6093273}, {"name": "Bishkek, Bishkek, KG", "lat": 42.9024623, "lon": 74.5808111}, {"name": "Lampang, Lampang, TH", "lat": 18.2899489, "lon": 99.4958526}, {"name": "Melipilla, Santiago Metropolitan, CL", "lat": -33.6855134, "lon": -71.2145796}, {"name": "Saratov, Saratov Oblast, RU", "lat": 51.530018, "lon": 46.034683}, {"name": "Salvador, Bahia, BR", "lat": -12.9822499, "lon": -38.4812772}, {"name": "Shyroke, Dnipropetrovska oblast, UA", "lat": 47.6846511, "lon": 33.2645369}, {"name": "Burgas, Burgas, BG", "lat": 42.4936616, "lon": 27.4721276}, {"name": "Pittsburgh, Pennsylvania, US", "lat": 40.4416941, "lon": -79.9900861}, {"name": "Cirebon, West Java, ID", "lat": -6.7137044, "lon": 108.5608483}, {"name": "Doha, Balad\u012byat ad Daw\u1e29ah, QA", "lat": 25.32499975, "lon": 51.35117855952147}, {"name": "Fuzhou, Fujian, CN", "lat": 26.0774954, "lon": 119.2918215}, {"name": "Havelock, North Carolina, US", "lat": 34.8785, "lon": -76.9014457}, {"name": "Jakarta, Central Java, ID", "lat": -6.86386305, "lon": 109.1436333117953}, {"name": "Jinan, Shandong, CN", "lat": 36.6507007, "lon": 117.1140042}, {"name": "C\u00facuta, Norte de Santander, CO", "lat": 7.8971458, "lon": -72.5080387}, {"name": "Buenos Aires, Santa Fe, AR", "lat": -32.9142212, "lon": -60.8005353}, {"name": "S\u00e3o Borja, Rio Grande do Sul, BR", "lat": -28.6592237, "lon": -56.0044295}, {"name": "Lipetsk, Lipetsk Oblast, RU", "lat": 52.6041877, "lon": 39.5936899}, {"name": "Campinas, S\u00e3o Paulo, BR", "lat": -22.90556, "lon": -47.06083}, {"name": "Phan Thong, Chon Buri, TH", "lat": 13.4711731, "lon": 101.0966223}, {"name": "Chon Buri, Chon Buri, TH", "lat": 13.3662087, "lon": 100.9872185}, {"name": "Kurnool, Andhra Pradesh, IN", "lat": 15.8309251, "lon": 78.0425373}, {"name": "Santa Cruz do Capibaribe, Pernambuco, BR", "lat": -7.948019, "lon": -36.206092}, {"name": "El Tabo, Valpara\u00edso, CL", "lat": -33.4545847, "lon": -71.669107}, {"name": "Valdivia, Los R\u00edos Region, CL", "lat": -39.8141262, "lon": -73.2459859}, {"name": "Manresa, Catalonia, ES", "lat": 41.7288939, "lon": 1.8286765}, {"name": "Sao Joao do Paraiso, Bahia, BR", "lat": -15.6526133, "lon": -39.47210850795116}, {"name": "Rantepao, Sulawesi Selatan, ID", "lat": -2.9704575, "lon": 119.8987167}, {"name": "Zhongshan, Guangdong, CN", "lat": 22.5196895, "lon": 113.3870834}, {"name": "Lamud, Amazonas, PE", "lat": -6.1390013, "lon": -77.9519237}, {"name": "Skjern, Midtjylland, DK", "lat": 55.9469339, "lon": 8.4909186}, {"name": "Ibiza, Illes Balears, ES", "lat": 38.974390099999994, "lon": 1.4197463178515335}, {"name": "Dong Hoi, Qu\u1ea3ng B\u00ecnh, VN", "lat": 17.4659566, "lon": 106.5984715}, {"name": "Istanbul, Hatay, TR", "lat": 40.9108498, "lon": 29.2216111}, {"name": "Sol\u00e2nea, Para\u00edba, BR", "lat": -6.7540351, "lon": -35.6621943}, {"name": "Abuja, FCT, NG", "lat": 9.0643305, "lon": 7.4892974}, {"name": "Oaxaca City, Oaxaca, MX", "lat": 17.067711, "lon": -96.7159201}, {"name": "Archena, Murcia, ES", "lat": 38.1178119, "lon": -1.3025236}, {"name": "Skopje, Grad Skopje, MK", "lat": 41.9960924, "lon": 21.4316495}, {"name": "Songkhla, Songkhla, TH", "lat": 7.1973429, "lon": 100.593205}, {"name": "Semnan, Semnan, IR", "lat": 35.5855682, "lon": 53.392129384753915}, {"name": "Torres, Rio Grande do Sul, BR", "lat": -29.3373663, "lon": -49.7299648}, {"name": "Santo Amaro, Bahia, BR", "lat": -12.5519686, "lon": -38.7060448}, {"name": "Jessore, Khulna, BD", "lat": 23.1665256, "lon": 89.2094419}, {"name": "Fortaleza, Cear\u00e1, BR", "lat": -3.7304512, "lon": -38.5217989}, {"name": "Bekasi, Bali, ID", "lat": -6.2155885, "lon": 106.8668716}, {"name": "Jacaraci, Bahia, BR", "lat": -14.8457532, "lon": -42.4328959}, {"name": "Imbituba, Santa Catarina, BR", "lat": -28.241827, "lon": -48.6643444}, {"name": "Uberlandia, Minas Gerais, BR", "lat": -18.9188041, "lon": -48.2767837}, {"name": "Mariquita, Tolima, CO", "lat": 5.1974195, "lon": -74.8939527}, {"name": "Dayton, Ohio, US", "lat": 39.7589478, "lon": -84.1916069}, {"name": "Salem, Tamil Nadu, IN", "lat": 11.6612012, "lon": 78.1602498}, {"name": "Cirebon, Jawa Barat, ID", "lat": -6.7137044, "lon": 108.5608483}, {"name": "Cerda, Sicily, IT", "lat": 37.903579, "lon": 13.8154701}, {"name": "Surakarta, Jawa Tengah, ID", "lat": -7.5692489, "lon": 110.828448}, {"name": "Asunci\u00f3n, Asunci\u00f3n, PY", "lat": -25.3172666, "lon": -57.6190949}, {"name": "Chernivtsi, Chernivetska oblast, UA", "lat": 48.6257936, "lon": 25.7407063}, {"name": "Kyiv, Dnipropetrovska oblast, UA", "lat": 50.4205759, "lon": 30.3266987}, {"name": "Sarajevo, Federation of B&H, BA", "lat": 43.8519774, "lon": 18.3866868}, {"name": "Shumen, Shumen, BG", "lat": 43.2703797, "lon": 26.9247362}, {"name": "\u00d3rgiva, Andalusia, ES", "lat": 36.9004942, "lon": -3.4238759}, {"name": "Harare, Harare, ZW", "lat": -17.831773, "lon": 31.045686}, {"name": "Abovyan, Yerevan, AM", "lat": 40.2848887, "lon": 44.6059486}, {"name": "Houston, Texas, US", "lat": 29.7589382, "lon": -95.3676974}, {"name": "Serra Talhada, Pernambuco, BR", "lat": -7.9867805, "lon": -38.2920294}, {"name": "Morelia, Michoac\u00e1n, MX", "lat": 19.7027116, "lon": -101.1923818}, {"name": "Criuleni, Criuleni, MD", "lat": 47.2095468, "lon": 29.1580621}, {"name": "Nice, \u00cele-de-France, FR", "lat": 48.8439375, "lon": 2.3757635}, {"name": "Sao Geraldo do Araguaia, Par\u00e1, BR", "lat": -6.394715, "lon": -48.559169}, {"name": "Graaff Reinet, Eastern Cape, ZA", "lat": -32.2535405, "lon": 24.5336485}, {"name": "Vicenza, Veneto, IT", "lat": 45.63485905, "lon": 11.40635425660249}, {"name": "Naaldwijk, South Holland, NL", "lat": 51.9930016, "lon": 4.2074197}, {"name": "Nanchang, Guangdong, CN", "lat": 22.0298467, "lon": 112.7855909}, {"name": "Santo Andr\u00e9, S\u00e3o Paulo, BR", "lat": -23.6533349, "lon": -46.5279508}, {"name": "Biratnagar, Province 1, NP", "lat": 26.4623007, "lon": 87.281617}, {"name": "Teixeira, Para\u00edba, BR", "lat": -7.221036, "lon": -37.252477}, {"name": "Plovdiv, Plovdiv, BG", "lat": 42.1418541, "lon": 24.7499297}, {"name": "Melgar, Tolima, CO", "lat": 4.2039758, "lon": -74.6429479}, {"name": "Bucaramanga, Santander, CO", "lat": 7.1172633, "lon": -73.1156668}, {"name": "Khandwa, Madhya Pradesh, IN", "lat": 21.9778642, "lon": 76.5688282326971}, {"name": "Wrens, Georgia, US", "lat": 33.2076456, "lon": -82.391792}, {"name": "Vinh, Ngh\u1ec7 An, VN", "lat": 18.6692445, "lon": 105.6881594}, {"name": "Taquara, Rio Grande do Sul, BR", "lat": -29.6465318, "lon": -50.7805672}, {"name": "Port Dickson, Selangor, MY", "lat": 2.6591421, "lon": 101.7280907}, {"name": "Pereira, Risaralda, CO", "lat": 4.8143159, "lon": -75.6946778}, {"name": "Krasnodar, Krasnodar Krai, RU", "lat": 45.0352718, "lon": 38.9764814}, {"name": "Ivanovo, Ivanovo Oblast, RU", "lat": 56.9984452, "lon": 40.9737394}, {"name": "Jaguaribe, Cear\u00e1, BR", "lat": -5.8854585, "lon": -38.6212957}, {"name": "Ourinhos, S\u00e3o Paulo, BR", "lat": -22.9777918, "lon": -49.868204}, {"name": "Florence, Tuscany, IT", "lat": 43.7698712, "lon": 11.2555757}, {"name": "Nha Trang, Kh\u00e1nh H\u00f2a, VN", "lat": 12.2431693, "lon": 109.1898675}, {"name": "Conshohocken, Pennsylvania, US", "lat": 40.0792766, "lon": -75.3015714}, {"name": "Santiago, Maule, CL", "lat": -35.455966, "lon": -71.6835616}, {"name": "Mueang Nonthaburi, Nonthaburi, TH", "lat": 13.8425351, "lon": 100.4817124}, {"name": "Biysk, Altai Krai, RU", "lat": 52.5394905, "lon": 85.2148673}, {"name": "Latur, Maharashtra, IN", "lat": 18.35159075, "lon": 76.75542361334745}, {"name": "As Sulaym\u0101n\u012byah, Sulaymaniyah, IQ", "lat": 35.5570501, "lon": 45.4425963}, {"name": "Gravelines, Hauts-de-France, FR", "lat": 50.9870697, "lon": 2.1273118}, {"name": "Wonosobo, West Java, ID", "lat": -6.2455615, "lon": 107.0917614}, {"name": "Rio de Janeiro, Rio de Janeiro, BR", "lat": -22.9110137, "lon": -43.2093727}, {"name": "Orlando, Florida, US", "lat": 28.5421109, "lon": -81.3790304}, {"name": "Cedar Knolls, New Jersey, US", "lat": 40.8220442, "lon": -74.448765}, {"name": "Wanjia, Shandong, CN", "lat": 36.9336862, "lon": 121.8966404}, {"name": "Dali, Yunnan, CN", "lat": 25.6074778, "lon": 100.2651597}, {"name": "Tumaco, Narino, CO", "lat": 1.8077554, "lon": -78.7705977}, {"name": "Nicosia, Nicosia, CY", "lat": 35.1748976, "lon": 33.3638568}, {"name": "Hong Kong, Central and Western, HK", "lat": 22.2850394, "lon": 114.1583819}, {"name": "Kyiv, Kyiv, UA", "lat": 50.4296064, "lon": 30.5422094}, {"name": "Lytkarino, Moscow Oblast, RU", "lat": 55.5822477, "lon": 37.9080217}, {"name": "Zagreb, City of Zagreb, HR", "lat": 45.84264135, "lon": 15.962231476593626}]