[{"name": "Atlanta, Georgia, US", "lat": 33.7489924, "lon": -84.3902644}, {"name": "Ivry-sur-Seine, \u00cele-de-France, FR", "lat": 48.8122302, "lon": 2.3872525}, {"name": "Ashburn, Virginia, US", "lat": 39.030019100000004, "lon": -77.46964646557657}, {"name": "Nanchang, Jiangxi, CN", "lat": 28.687547, "lon": 115.8540042}, {"name": "Ho Chi Minh City, Ho Chi Minh, VN", "lat": 10.7608529, "lon": 106.7012374}, {"name": "Stavanger, Rogaland, NO", "lat": 58.9699675, "lon": 5.7318101}, {"name": "C\u00facuta, Santander, CO", "lat": 7.8971458, "lon": -72.5080387}, {"name": "Maring\u00e1, Paran\u00e1, BR", "lat": -23.425269, "lon": -51.9382078}, {"name": "Simferopol, Avtonomna Respublika Krym, UA", "lat": 44.9521459, "lon": 34.1024858}, {"name": "Krakow, Mazovia, PL", "lat": 52.3511111, "lon": 19.9441667}, {"name": "Los Angeles, California, US", "lat": 34.0536909, "lon": -118.242766}, {"name": "Zaporizhzhya, Zaporizka oblast, UA", "lat": 47.8507859, "lon": 35.1182867}, {"name": "Santiago, Santiago Metropolitan, CL", "lat": -33.4377756, "lon": -70.6504502}, {"name": "Bogor, West Java, ID", "lat": -6.5962986, "lon": 106.7972421}, {"name": "Purwokerto, Central Java, ID", "lat": -7.4279011, "lon": 109.2408501}, {"name": "Tokyo, Tokyo, JP", "lat": 35.6821116, "lon": 139.7656744}, {"name": "D\u00fcsseldorf, North Rhine-Westphalia, DE", "lat": 51.2254018, "lon": 6.7763137}, {"name": "Lanzhou, Gansu, CN", "lat": 36.0620781, "lon": 103.8318566}, {"name": "Roubaix, Hauts-de-France, FR", "lat": 50.6915893, "lon": 3.1741734}, {"name": "Moscow, Moskva, RU", "lat": 55.7504461, "lon": 37.6174943}, {"name": "Goyang-si, Gyeonggi-do, KR", "lat": 37.6581862, "lon": 126.8319452}, {"name": "S\u00e3o Paulo, S\u00e3o Paulo, BR", "lat": -23.5506507, "lon": -46.6333824}, {"name": "Denpasar, Bali, ID", "lat": -8.6524973, "lon": 115.2191175}, {"name": "Bangkok, Bangkok, TH", "lat": 13.7524938, "lon": 100.4935089}, {"name": "Umuarama, Paran\u00e1, BR", "lat": -23.7621152, "lon": -53.3116192}, {"name": "Botosani, Boto\u0219ani, RO", "lat": 47.7450706, "lon": 26.6599858}, {"name": "Jakarta, Jakarta, ID", "lat": -6.1875613, "lon": 106.8277658}, {"name": "Jackson, Mississippi, US", "lat": 32.3086744, "lon": -90.1983063}, {"name": "Jakarta, Jawa Barat, ID", "lat": -6.3164761, "lon": 106.7799977}, {"name": "Concepci\u00f3n de la Vega, La Vega, DO", "lat": 19.2237411, "lon": -70.5284071}, {"name": "Kharkiv, Kharkivska oblast, UA", "lat": 49.9923181, "lon": 36.2310146}, {"name": "Hangzhou, Zhejiang, CN", "lat": 30.2489634, "lon": 120.2052342}, {"name": "Dublin, Leinster, IE", "lat": 53.3498006, "lon": -6.2602964}, {"name": "Ansan-si, Gyeonggi-do, KR", "lat": 37.3217152, "lon": 126.8308604}, {"name": "Seoul, Seoul-teukbyeolsi, KR", "lat": 37.5545547, "lon": 126.9707793}, {"name": "Ternopil, Ternopilska oblast, UA", "lat": 49.5557716, "lon": 25.591886}, {"name": "Chengdu, Sichuan, CN", "lat": 30.6598628, "lon": 104.0633717}, {"name": "Istanbul, Istanbul, TR", "lat": 41.0091982, "lon": 28.9662187}, {"name": "Hong Kong, Central and Western District, HK", "lat": 22.2850394, "lon": 114.1583819}, {"name": "Dronten, Flevoland, NL", "lat": 52.531389649999994, "lon": 5.750631211201343}, {"name": "Ivano-Frankivsk, Ivano-Frankivska oblast, UA", "lat": 48.9225224, "lon": 24.7103188}, {"name": "Nairobi, Nairobi City, KE", "lat": -1.2986468, "lon": 36.811202}, {"name": "Hatay, Istanbul, TR", "lat": 40.9108498, "lon": 29.2216111}, {"name": "Nairobi, Nairobi Area, KE", "lat": -0.2918445, "lon": 36.1196382}, {"name": "Helsinki, Uusimaa, FI", "lat": 60.1674881, "lon": 24.9427473}, {"name": "Basrah, Basra, IQ", "lat": 30.4952371, "lon": 47.8090981}, {"name": "Bekasi, Jawa Barat, ID", "lat": -6.2349858, "lon": 106.9945444}, {"name": "Belgrade, Beograd, RS", "lat": 44.8178131, "lon": 20.4568974}, {"name": "Quito, Pichincha, EC", "lat": -0.2201641, "lon": -78.5123274}, {"name": "Budapest, Budapest, HU", "lat": 47.4659153, "lon": 19.0774747}, {"name": "Portland, Oregon, US", "lat": 45.5202471, "lon": -122.674194}, {"name": "Hermosillo, Sonora, MX", "lat": 29.0948207, "lon": -110.9692202}, {"name": "Carlisle, Pennsylvania, US", "lat": 40.201499, "lon": -77.1890783}, {"name": "Seoul, Gyeonggi-do, KR", "lat": 37.492846549999996, "lon": 126.8729843933958}, {"name": "Mumbai, Maharashtra, IN", "lat": 19.0785451, "lon": 72.878176}, {"name": "Istanbul, Tokat, TR", "lat": 41.2157489, "lon": 28.0619251}, {"name": "Suzhou, Jiangsu, CN", "lat": 31.3016935, "lon": 120.5810725}, {"name": "Dar es Salaam, Dar es Salaam, TZ", "lat": -6.807654449999999, "lon": 39.286938046328814}, {"name": "La Paz, La Paz, BO", "lat": -16.4955455, "lon": -68.1336229}, {"name": "Montreal, Quebec, CA", "lat": 45.5031824, "lon": -73.5698065}, {"name": "Nuremberg, Bayern, DE", "lat": 49.453872, "lon": 11.077298}, {"name": "Taipei, Taipei, TW", "lat": 25.047554, "lon": 121.5170503}, {"name": "Las Vegas, Nevada, US", "lat": 36.1672559, "lon": -115.148516}, {"name": "Council Bluffs, Iowa, US", "lat": 41.258841, "lon": -95.8519484}, {"name": "Montevideo, Montevideo, UY", "lat": -34.9058916, "lon": -56.1913095}, {"name": "Stockholm, Stockholm, SE", "lat": 59.3251172, "lon": 18.0710935}, {"name": "Raul Soares, Minas Gerais, BR", "lat": -20.102222, "lon": -42.451944}, {"name": "Nanning, Guangxi, CN", "lat": 22.8193063, "lon": 108.3627211}, {"name": "Tongi, Dhaka, BD", "lat": 23.9084932, "lon": 90.3980037}, {"name": "Hanoi, Hanoi, VN", "lat": 21.04455905, "lon": 105.91867533594649}, {"name": "Tuusula, Uusimaa, FI", "lat": 60.4017496, "lon": 25.0280695}, {"name": "Rzesz\u00f3w, Podkarpackie, PL", "lat": 50.0374531, "lon": 22.0047174}, {"name": "Milan, Lombardy, IT", "lat": 45.4641943, "lon": 9.1896346}, {"name": "Valencia, Carabobo, VE", "lat": 10.170026, "lon": -68.0003987}, {"name": "Amsterdam, North Holland, NL", "lat": 52.3727598, "lon": 4.8936041}, {"name": "Berlin, Berlin, DE", "lat": 52.5103817, "lon": 13.4349112}, {"name": "Santiago de los Caballeros, Santiago, DO", "lat": 19.4503932, "lon": -70.6909047}, {"name": "Tehran, Tehran, IR", "lat": 35.6892523, "lon": 51.3896004}, {"name": "Beijing, Beijing, CN", "lat": 39.906217, "lon": 116.3912757}, {"name": "Tempe, Arizona, US", "lat": 33.4255056, "lon": -111.9400091}, {"name": "Chelyabinsk, Chelyabinsk, RU", "lat": 55.1598408, "lon": 61.4025547}, {"name": "Kyiv, Kyiv City, UA", "lat": 50.446247400000004, "lon": 30.520873004610422}, {"name": "Gresik, East Java, ID", "lat": -5.79334655, "lon": 112.6598223201143}, {"name": "Queretaro, Quer\u00e9taro, MX", "lat": 20.5954708, "lon": -100.397059}, {"name": "Babahoyo, Los R\u00edos, EC", "lat": -1.8009022, "lon": -79.5338214}, {"name": "Lucknow, Uttar Pradesh, IN", "lat": 26.8381, "lon": 80.9346001}, {"name": "Saint Petersburg, Sankt-Peterburg, RU", "lat": 59.938732, "lon": 30.316229}, {"name": "Cuenca, Azuay, EC", "lat": -2.8974072, "lon": -79.0041726}, {"name": "North Bergen, New Jersey, US", "lat": 40.8042674, "lon": -74.012084}, {"name": "Moscow, Moscow, RU", "lat": 55.7504461, "lon": 37.6174943}, {"name": "Caracas, Distrito Federal, VE", "lat": 10.4890937, "lon": -66.9311048}, {"name": "Almaty, Almaty, KZ", "lat": 43.232693, "lon": 76.59951}, {"name": "Bandar Abbas, Hormozgan, IR", "lat": 27.1793466, "lon": 56.2781423}, {"name": "Fresno, California, US", "lat": 36.7394421, "lon": -119.7848307}, {"name": "Bengaluru, Karnataka, IN", "lat": 12.9767936, "lon": 77.590082}, {"name": "Bandung, West Java, ID", "lat": -6.9344694, "lon": 107.6049539}, {"name": "General San Martin, Buenos Aires, AR", "lat": -34.5762765, "lon": -58.5388435}, {"name": "Machala, El Oro, EC", "lat": -3.2588565, "lon": -79.9588518}, {"name": "Medell\u00edn, Antioquia, CO", "lat": 6.2443382, "lon": -75.573553}, {"name": "Maputo, Maputo, MZ", "lat": -25.9710058, "lon": 32.5644748}, {"name": "Rivne, Rivne, UA", "lat": 50.6196175, "lon": 26.2513165}, {"name": "Itabira, Minas Gerais, BR", "lat": -19.6186264, "lon": -43.2267011}, {"name": "Columbus, Ohio, US", "lat": 39.9622601, "lon": -83.0007065}, {"name": "Frankfurt am Main, Hesse, DE", "lat": 50.1106444, "lon": 8.6820917}, {"name": "Conchali, Santiago Metropolitan, CL", "lat": -33.3843238, "lon": -70.67473455935627}, {"name": "Cunit, Catalonia, ES", "lat": 41.197596, "lon": 1.6344596}, {"name": "Joinville, Santa Catarina, BR", "lat": -26.3044898, "lon": -48.8486726}, {"name": "Sydney, New South Wales, AU", "lat": -33.8698439, "lon": 151.2082848}, {"name": "Mersin, Mersin, TR", "lat": 36.7978381, "lon": 34.6298391}, {"name": "Lagos, Lagos, NG", "lat": 6.4550575, "lon": 3.3941795}, {"name": "Dhaka, Dhaka, BD", "lat": 23.7644025, "lon": 90.389015}, {"name": "Catarama, Los R\u00edos, EC", "lat": -1.5692196, "lon": -79.4750201}, {"name": "Mandaluyong City, National Capital Region, PH", "lat": 14.5776485, "lon": 121.0337001}, {"name": "Shenzhen, Guangdong, CN", "lat": 22.5445741, "lon": 114.0545429}, {"name": "Campo Grande, Mato Grosso do Sul, BR", "lat": -20.4640173, "lon": -54.6162947}, {"name": "San Mateo, California, US", "lat": 37.496904, "lon": -122.3330573}, {"name": "Piscataway, New Jersey, US", "lat": 40.5462553, "lon": -74.4660408}, {"name": "Malang, Jawa Timur, ID", "lat": -7.9771206, "lon": 112.6340291}, {"name": "Turmero, Aragua, VE", "lat": 10.2217183, "lon": -67.4865808}, {"name": "Belgrade, Vojvodina, RS", "lat": 45.8853706, "lon": 19.6339787}, {"name": "Phoenix, Arizona, US", "lat": 33.4484367, "lon": -112.074141}, {"name": "Smederevo, Podunavski okrug, RS", "lat": 44.6651048, "lon": 20.9271115}, {"name": "Surabaya, Jawa Timur, ID", "lat": -7.2459717, "lon": 112.7378266}, {"name": "Gaocheng, Hebei, CN", "lat": 38.0235712, "lon": 114.8406059}, {"name": "Nablus, West Bank, PS", "lat": 32.2205316, "lon": 35.2569374}, {"name": "Kearney, Nebraska, US", "lat": 40.4906216, "lon": -98.9472344}, {"name": "Faridpur, Dhaka, BD", "lat": 23.6040182, "lon": 89.8415542}, {"name": "Los Andes, Valpara\u00edso, CL", "lat": -32.8336867, "lon": -70.5981609}, {"name": "Zaporizhzhya, Zaporizhzhya Oblast, UA", "lat": 47.8507859, "lon": 35.1182867}, {"name": "Seoul, Seoul, KR", "lat": 37.5545547, "lon": 126.9707793}, {"name": "Warsaw, Mazovia, PL", "lat": 52.2319581, "lon": 21.0067249}, {"name": "Kaunas, Kaunas, LT", "lat": 54.8982139, "lon": 23.9044817}, {"name": "Bangkok, Krung Thep Maha Nakhon, TH", "lat": 13.7524938, "lon": 100.4935089}, {"name": "Ban Rai, Uthai Thani, TH", "lat": 15.0825, "lon": 99.52111}, {"name": "Xiamen, Fujian, CN", "lat": 24.4801069, "lon": 118.0853479}, {"name": "Karlovy Vary, Karlovarsk\u00fd kraj, CZ", "lat": 50.2306147, "lon": 12.8699868}, {"name": "Mogi Guacu, S\u00e3o Paulo, BR", "lat": -22.372222, "lon": -46.9425}, {"name": "Samara, Samara Oblast, RU", "lat": 53.198627, "lon": 50.113987}, {"name": "Khmelnytskyi, Khmelnytskyi Oblast, UA", "lat": 49.4196404, "lon": 26.9793793}, {"name": "Burns, Oregon, US", "lat": 43.5861256, "lon": -119.054413}, {"name": "Surabaya, East Java, ID", "lat": -7.2459717, "lon": 112.7378266}, {"name": "Brussels, Brussels Capital, BE", "lat": 50.8465573, "lon": 4.351697}, {"name": "Rajkot, Gujarat, IN", "lat": 22.3053263, "lon": 70.8028377}, {"name": "Odesa, Odessa, UA", "lat": 46.4843023, "lon": 30.7322878}, {"name": "Tychy, Silesia, PL", "lat": 50.114397, "lon": 18.9965933}, {"name": "Makariv, Kyivska oblast, UA", "lat": 50.4639897, "lon": 29.8068986}, {"name": "Palmares do Sul, Rio Grande do Sul, BR", "lat": -30.2580247, "lon": -50.5097954}, {"name": "Bogot\u00e1, Bogota D.C., CO", "lat": 4.6534649, "lon": -74.0836453}, {"name": "Suwanee, Georgia, US", "lat": 34.0514898, "lon": -84.0712997}, {"name": "Ouro Branco, Minas Gerais, BR", "lat": -20.5230256, "lon": -43.6917329}, {"name": "Juiz de Fora, Minas Gerais, BR", "lat": -21.7609533, "lon": -43.3501129}, {"name": "Kampala, Central Region, UG", "lat": 0.3177137, "lon": 32.5813539}, {"name": "Benav\u00eddez, Buenos Aires, AR", "lat": -34.4115721, "lon": -58.6899278}, {"name": "Saladas, Corrientes, AR", "lat": -28.2547059, "lon": -58.6233333}, {"name": "Cape Town, Western Cape, ZA", "lat": -33.928992, "lon": 18.417396}, {"name": "Shaoxing, Zhejiang, CN", "lat": 29.9992425, "lon": 120.576854}, {"name": "Bom Sucesso, Minas Gerais, BR", "lat": -21.0323516, "lon": -44.7598082}, {"name": "Falkenstein, Sachsen, DE", "lat": 50.5353917, "lon": 12.6643842}, {"name": "Voronezh, Voronezh Oblast, RU", "lat": 51.6605982, "lon": 39.2005858}, {"name": "Sao Joaquim de Bicas, Minas Gerais, BR", "lat": -20.0489052, "lon": -44.2731691}, {"name": "Taichung, Nantou, TW", "lat": 23.9103274, "lon": 120.6855453}, {"name": "Jakarta, Jakarta Raya, ID", "lat": -6.1457631500000005, "lon": 106.90500356408192}, {"name": "Kranidi, Peloponnese, GR", "lat": 37.3805367, "lon": 23.1601389}, {"name": "Cartago, Cartago, CR", "lat": 9.8642435, "lon": -83.9204377}, {"name": "Vyshneve, Kyiv, UA", "lat": 50.3917497, "lon": 30.3678999}, {"name": "Bogra, Rajshahi Division, BD", "lat": 24.8500662, "lon": 89.3728431}, {"name": "Ciudad Obreg\u00f3n, Sonora, MX", "lat": 27.4846619, "lon": -109.9337782}, {"name": "Innsbruck, Tyrol, AT", "lat": 47.2654296, "lon": 11.3927685}, {"name": "Norwalk, California, US", "lat": 33.9092802, "lon": -118.0849169}, {"name": "Madrid, Madrid, ES", "lat": 40.4167047, "lon": -3.7035825}, {"name": "Whitehall, Montana, US", "lat": 45.87076, "lon": -112.097494}, {"name": "Amsterdam, Noord-Holland, NL", "lat": 52.3727598, "lon": 4.8936041}, {"name": "Rosario, Santa Fe, AR", "lat": -32.9595004, "lon": -60.6615415}, {"name": "Erbil, Arb\u012bl, IQ", "lat": 36.1911653, "lon": 44.0094294}, {"name": "Sochi, Krasnodar Krai, RU", "lat": 43.5854823, "lon": 39.723109}, {"name": "Kathmandu, Bagmati Province, NP", "lat": 27.708317, "lon": 85.3205817}, {"name": "Jun\u00edn, Buenos Aires, AR", "lat": -34.5934412, "lon": -60.9461678}, {"name": "Noida, Uttar Pradesh, IN", "lat": 28.5707841, "lon": 77.3271074}, {"name": "Akron, Ohio, US", "lat": 41.083064, "lon": -81.518485}]